,City,Lat,Lng,Max Temp,Humidity,Cloudiness,Wind Speed,Country,Date
0,pacific grove,36.62,-121.92,71.01,60,1,9.17,US,1596238050
1,hermanus,-34.42,19.23,44.01,95,1,5.75,ZA,1596238148
2,hobyo,5.35,48.53,77.16,75,1,28.16,SO,1596238149
3,pitimbu,-7.47,-34.81,73.4,94,20,5.82,BR,1596238149
4,hobart,-42.88,147.33,50.0,71,75,10.29,AU,1596237898
5,upernavik,72.79,-56.15,44.64,64,67,12.82,GL,1596238149
6,bluff,-46.6,168.33,50.59,89,100,5.03,NZ,1596238149
7,hilo,19.73,-155.09,82.4,61,90,9.17,US,1596238150
8,bubaque,11.28,-15.83,80.35,81,98,13.65,GW,1596238150
9,ushuaia,-54.8,-68.3,41.0,52,40,17.22,AR,1596237998
10,kapaa,22.08,-159.32,84.2,66,40,16.11,US,1596238151
11,albany,42.6,-73.97,84.0,55,12,4.16,US,1596238003
12,strezhevoy,60.73,77.59,57.2,82,91,6.71,RU,1596238151
13,hasaki,35.73,140.83,75.99,88,75,9.17,JP,1596238151
14,saint george,37.1,-113.58,109.99,8,1,16.11,US,1596238015
15,vao,-22.67,167.48,68.5,78,26,24.43,NC,1596238152
16,bac lieu,9.29,105.72,79.75,84,100,18.03,VN,1596238152
17,port blair,11.67,92.75,82.69,78,99,18.61,IN,1596238152
18,vaini,-21.2,-175.2,71.6,73,75,10.29,TO,1596238152
19,rikitea,-23.12,-134.97,74.01,84,100,9.82,PF,1596238153
20,mataura,-46.19,168.86,53.49,77,100,4.7,NZ,1596238153
21,busselton,-33.65,115.33,45.0,89,72,4.47,AU,1596237944
22,los llanos de aridane,28.66,-17.92,73.4,73,90,11.41,ES,1596238153
23,hofn,64.25,-15.21,52.66,93,100,20.31,IS,1596238154
24,faanui,-16.48,-151.75,78.98,82,0,16.49,PF,1596238154
25,farmington,36.73,-108.22,98.6,8,1,13.87,US,1596237995
26,petropavlovsk-kamchatskiy,53.05,158.65,66.2,52,60,15.66,RU,1596238154
27,chuy,-33.7,-53.46,49.59,90,100,2.93,UY,1596238155
28,new norfolk,-42.78,147.06,50.0,76,99,1.01,AU,1596238155
29,airai,-8.93,125.41,55.6,52,64,3.38,TL,1596238155
30,port hedland,-20.32,118.57,53.6,37,0,5.82,AU,1596238155
31,raesfeld,51.77,6.85,75.99,53,0,7.0,DE,1596238155
32,hope,33.67,-93.59,84.99,75,80,4.0,US,1596238156
33,the pas,53.83,-101.25,77.0,47,40,5.79,CA,1596238156
34,seoul,37.57,126.98,78.8,94,75,4.52,KR,1596238071
35,hami,42.8,93.45,72.0,21,1,13.49,CN,1596238156
36,campbell river,50.02,-125.24,75.2,50,75,14.99,CA,1596238006
37,arraial do cabo,-22.97,-42.03,68.81,75,86,15.97,BR,1596238157
38,parnamirim,-5.92,-35.26,75.2,88,20,8.05,BR,1596238157
39,kashiwazaki,37.37,138.55,82.0,75,34,6.31,JP,1596238157
40,ouadda,8.08,22.4,68.25,94,64,2.15,CF,1596238157
41,fukuma,33.77,130.47,82.99,78,75,9.17,JP,1596238158
42,lasa,46.62,10.7,66.0,77,5,4.7,IT,1596238158
43,jamestown,42.1,-79.24,75.99,64,1,10.29,US,1596238111
44,wewak,-3.55,143.63,82.29,83,100,8.81,PG,1596238158
45,krupina,48.36,19.06,57.2,82,0,1.12,SK,1596238158
46,tocopilla,-22.09,-70.2,60.78,61,10,1.36,CL,1596238159
47,barrow,71.29,-156.79,39.2,80,90,4.7,US,1596238159
48,atuona,-9.8,-139.03,79.03,72,67,17.47,PF,1596238159
49,hare bay,48.85,-54.01,57.2,100,90,16.11,CA,1596238159
50,puerto suarez,-18.95,-57.8,75.72,49,12,3.36,BO,1596238159
51,port elizabeth,-33.92,25.57,50.0,100,0,3.36,ZA,1596238160
52,yellowknife,62.46,-114.35,72.0,49,75,10.29,CA,1596238160
53,punta arenas,-53.15,-70.92,37.4,93,75,18.34,CL,1596238160
54,klaksvik,62.23,-6.59,53.6,100,99,18.34,FO,1596238160
55,praia,14.92,-23.51,78.8,69,75,6.93,CV,1596238160
56,tyler,32.35,-95.3,91.4,43,65,11.41,US,1596238160
57,aswan,24.09,32.91,98.76,18,16,15.28,EG,1596238161
58,porangatu,-13.44,-49.15,74.39,21,0,7.9,BR,1596238161
59,san patricio,19.22,-104.7,87.8,74,75,5.82,MX,1596238161
60,tiksi,71.69,128.87,41.61,80,54,4.36,RU,1596238161
61,tura,25.52,90.22,74.23,93,68,2.46,IN,1596238161
62,severodvinsk,64.56,39.83,51.8,87,40,4.47,RU,1596238162
63,olafsvik,64.89,-23.71,50.38,90,100,19.73,IS,1596238162
64,princeton,25.54,-80.41,88.0,74,40,18.34,US,1596238162
65,puerto ayora,-0.74,-90.35,71.01,84,95,4.0,EC,1596238162
66,daru,-9.08,143.21,76.96,68,68,15.88,PG,1596238162
67,beira,-19.84,34.84,69.8,77,20,11.41,MZ,1596238163
68,leningradskiy,69.38,178.42,38.91,78,100,4.65,RU,1596238163
69,dikson,73.51,80.55,56.55,67,73,13.65,RU,1596238163
70,imbituba,-28.24,-48.67,62.6,82,75,6.93,BR,1596238163
71,banda aceh,5.56,95.32,79.95,72,99,12.21,ID,1596238163
72,acapulco,16.86,-99.89,87.8,70,75,3.36,MX,1596238118
73,imeni poliny osipenko,52.42,136.49,57.49,98,100,5.32,RU,1596238164
74,cabo san lucas,22.89,-109.91,91.4,51,20,14.99,MX,1596238164
75,yenagoa,4.92,6.26,72.84,90,90,3.96,NG,1596238164
76,praia da vitoria,38.73,-27.07,73.4,64,40,9.42,PT,1596238164
77,lagoa,39.05,-27.98,69.66,72,58,11.65,PT,1596238165
78,meybod,32.25,54.02,84.2,28,40,11.41,IR,1596238165
79,bredasdorp,-34.53,20.04,44.6,93,0,1.12,ZA,1596238165
80,jamame,0.07,42.75,75.51,81,73,11.92,SO,1596238165
81,carnarvon,-24.87,113.63,59.0,72,0,14.99,AU,1596238165
82,hithadhoo,-0.6,73.08,82.67,74,100,8.25,MV,1596238166
83,okhotsk,59.38,143.3,63.19,58,0,13.96,RU,1596238166
84,turayf,31.67,38.66,80.6,30,0,10.29,SA,1596238166
85,paragominas,-2.97,-47.48,77.9,55,14,3.94,BR,1596238166
86,ketchikan,55.34,-131.65,78.8,44,1,9.17,US,1596237962
87,longyearbyen,78.22,15.64,51.8,76,20,4.07,SJ,1596238167
88,kaitangata,-46.28,169.85,55.99,73,100,3.0,NZ,1596238167
89,saldanha,-33.01,17.94,51.8,87,0,3.36,ZA,1596238167
90,sitka,57.05,-135.33,84.2,30,1,9.17,US,1596238167
91,georgetown,5.41,100.34,77.0,94,20,2.24,MY,1596237947
92,nanortalik,60.14,-45.24,44.1,83,99,11.65,GL,1596238168
93,zamora,-4.07,-78.96,69.3,73,67,2.86,EC,1596238099
94,ponta do sol,32.67,-17.1,68.0,77,20,9.17,PT,1596238168
95,karratha,-20.74,116.85,66.76,28,0,7.67,AU,1596238168
96,biak,-0.91,122.88,76.98,82,95,6.98,ID,1596238168
97,guaratuba,-25.88,-48.57,60.8,87,75,3.36,BR,1596237913
98,jeremoabo,-10.07,-38.48,66.29,91,34,9.31,BR,1596238169
99,puerto colombia,10.99,-74.95,84.2,83,75,1.12,CO,1596238169
100,muyezerskiy,63.93,31.65,46.71,90,32,6.2,RU,1596238169
101,sao joao da barra,-21.64,-41.05,69.31,72,87,13.02,BR,1596238170
102,bowen,-20.02,148.23,69.01,68,75,21.92,AU,1596238170
103,vardo,70.37,31.11,48.2,81,75,8.05,NO,1596237927
104,ostersund,63.18,14.64,57.2,87,9,2.24,SE,1596238170
105,hailey,43.52,-114.32,93.2,21,5,4.7,US,1596238170
106,rocha,-34.48,-54.33,49.21,90,100,3.47,UY,1596238170
107,manoel urbano,-8.84,-69.26,77.25,52,46,1.39,BR,1596238171
108,cape town,-33.93,18.42,54.0,100,0,2.24,ZA,1596237903
109,kayan,16.91,96.56,78.8,94,20,4.7,MM,1596238171
110,butaritari,3.07,172.79,83.12,72,54,7.94,KI,1596238171
111,qaanaaq,77.48,-69.36,41.29,66,0,4.21,GL,1596238171
112,touros,-5.2,-35.46,75.2,88,20,4.7,BR,1596238172
113,yar-sale,66.83,70.83,52.36,72,66,4.36,RU,1596238172
114,skjervoy,70.03,20.97,53.44,84,2,2.08,NO,1596238172
115,port lincoln,-34.73,135.87,56.3,48,52,17.78,AU,1596238172
116,husavik,66.04,-17.34,51.8,87,75,2.24,IS,1596238172
117,haines junction,60.75,-137.51,79.07,31,84,3.24,CA,1596238173
118,gamba,-2.65,10.0,71.8,83,34,6.67,GA,1596238173
119,henderson,36.04,-114.98,111.2,8,1,6.93,US,1596238173
120,bogotol,56.21,89.53,54.9,83,100,3.94,RU,1596238173
121,xihua,33.78,114.52,80.06,88,69,5.79,CN,1596238173
122,honiara,-9.43,159.95,87.8,70,40,4.7,SB,1596237889
123,komsomolskiy,40.43,71.72,78.8,34,9,9.17,UZ,1596238174
124,plettenberg bay,-34.05,23.37,54.79,79,0,4.18,ZA,1596238174
125,riohacha,11.54,-72.91,82.62,82,15,5.82,CO,1596237979
126,lompoc,34.64,-120.46,69.01,68,6,11.41,US,1596238175
127,east london,-33.02,27.91,59.83,63,0,4.85,ZA,1596238175
128,shimoda,34.67,138.95,77.0,83,75,11.41,JP,1596238175
129,lagunas,-5.23,-75.68,79.59,73,23,1.83,PE,1596238175
130,kishtwar,33.32,75.77,63.77,71,36,1.57,IN,1596238176
131,yokadouma,3.52,15.05,69.96,91,19,1.61,CM,1596238176
132,kahului,20.89,-156.47,86.0,58,20,28.86,US,1596238176
133,cheyenne,41.14,-104.82,82.4,26,75,12.75,US,1596237901
134,thompson,55.74,-97.86,64.4,88,75,9.93,CA,1596238176
135,tulagi,-9.1,160.15,87.8,70,40,4.7,SB,1596238177
136,aktau,43.65,51.2,62.6,77,0,4.47,KZ,1596238177
137,sao felix do xingu,-6.64,-51.99,79.32,38,0,2.8,BR,1596238177
138,saint-philippe,-21.36,55.77,68.0,88,20,6.93,RE,1596238177
139,grand gaube,-20.01,57.66,66.0,85,46,1.99,MU,1596238177
140,atambua,-9.11,124.89,66.16,73,83,5.66,ID,1596238177
141,luderitz,-26.65,15.16,73.4,17,0,12.75,NA,1596238178
142,shingu,33.73,135.98,82.4,74,20,6.93,JP,1596238178
143,sao sebastiao,-23.76,-45.41,66.74,85,79,10.38,BR,1596238027
144,codrington,-38.27,141.97,50.4,72,23,17.22,AU,1596238178
145,mar del plata,-38.0,-57.56,48.99,86,0,3.6,AR,1596238178
146,ribeira grande,38.52,-28.7,70.5,69,16,7.83,PT,1596238179
147,kamina,-8.74,24.99,66.83,47,39,5.79,CD,1596238179
148,tateyama,34.98,139.87,77.0,83,75,11.41,JP,1596238179
149,limbang,4.75,115.0,78.8,88,75,2.24,MY,1596238179
150,itarema,-2.92,-39.92,78.03,74,53,13.22,BR,1596238179
151,nikolskoye,59.7,30.79,57.2,71,57,11.18,RU,1596238180
152,maloy,61.94,5.11,61.0,93,46,5.82,NO,1596238077
153,lewisporte,49.25,-55.05,64.99,100,90,16.11,CA,1596238180
154,severo-kurilsk,50.68,156.12,53.56,83,54,15.75,RU,1596238180
155,hervey bay,-25.3,152.85,60.01,85,60,7.0,AU,1596237948
156,atar,20.52,-13.05,92.98,41,35,9.69,MR,1596238181
157,muros,42.78,-9.06,66.99,83,71,6.4,ES,1596238181
158,nyurba,63.28,118.33,61.5,69,0,4.74,RU,1596238181
159,zavoronezhskoye,52.88,40.55,59.23,80,100,6.15,RU,1596238181
160,kavaratti,10.57,72.64,82.33,80,100,23.09,IN,1596238182
161,vanino,49.09,140.25,59.43,94,100,6.33,RU,1596238182
162,zhigansk,66.77,123.37,61.16,59,0,13.76,RU,1596238182
163,prescott,34.54,-112.47,98.01,11,1,10.29,US,1596238037
164,ahipara,-35.17,173.17,59.14,78,100,16.13,NZ,1596238183
165,port alfred,-33.59,26.89,57.29,74,0,5.44,ZA,1596238183
166,barranca,-10.75,-77.77,60.75,80,11,4.85,PE,1596238183
167,tessalit,20.2,1.01,97.16,10,0,4.94,ML,1596238183
168,bandarbeyla,9.49,50.81,78.84,74,2,30.65,SO,1596238183
169,champerico,14.3,-91.92,87.8,70,40,16.11,GT,1596238184
170,lokosovo,61.13,74.82,56.77,78,61,7.27,RU,1596238184
171,kijini,-5.85,39.32,74.28,79,0,12.91,TZ,1596238184
172,tasiilaq,65.61,-37.64,46.4,52,0,6.93,GL,1596238184
173,pevek,69.7,170.31,35.71,95,99,5.21,RU,1596237975
174,houma,29.6,-90.72,90.0,62,5,8.05,US,1596238099
175,lima,-12.04,-77.03,60.8,77,90,6.93,PE,1596238160
176,ilulissat,69.22,-51.1,46.4,75,100,17.22,GL,1596238185
177,shetpe,44.17,52.12,72.9,51,31,1.01,KZ,1596238185
178,salalah,17.02,54.09,82.4,94,75,9.17,OM,1596238185
179,high level,58.52,-117.14,80.6,42,40,9.17,CA,1596238186
180,constitucion,-35.33,-72.42,53.24,76,100,1.83,CL,1596238095
181,khatanga,71.97,102.5,65.97,50,87,12.82,RU,1596238186
182,tuktoyaktuk,69.45,-133.04,60.8,77,40,12.75,CA,1596238186
183,bam,29.11,58.36,81.14,16,0,3.87,IR,1596238186
184,lebu,-37.62,-73.65,50.9,78,100,14.07,CL,1596238186
185,mahebourg,-20.41,57.7,69.8,83,20,6.93,MU,1596238187
186,nouadhibou,20.93,-17.03,75.2,83,18,16.11,MR,1596238187
187,avarua,-21.21,-159.78,73.4,56,5,3.36,CK,1596238157
188,saint anthony,45.02,-93.22,84.2,37,1,4.7,US,1596238058
189,hirara,24.8,125.28,86.0,79,20,8.05,JP,1596238188
190,torbay,47.67,-52.73,61.0,100,90,3.36,CA,1596238188
191,port moresby,-9.44,147.18,75.63,64,67,12.93,PG,1596238188
192,palmer,42.16,-72.33,86.0,37,20,8.05,US,1596237971
193,sisimiut,66.94,-53.67,45.81,90,100,15.77,GL,1596238188
194,bethel,41.37,-73.41,82.99,61,1,5.82,US,1596238189
195,bonavista,48.65,-53.11,55.0,73,100,1.01,CA,1596238189
196,kayasula,44.33,45.0,71.24,65,1,4.56,RU,1596238189
197,ust-uda,54.17,103.03,59.99,83,0,6.15,RU,1596238189
198,davila,18.47,120.58,77.0,100,90,5.82,PH,1596238189
199,castro,-24.79,-50.01,51.3,93,52,5.99,BR,1596238190
200,kungurtug,50.6,97.52,49.12,87,100,3.04,RU,1596238190
201,kodiak,57.79,-152.41,59.0,87,90,9.17,US,1596238190
202,bengkulu,-3.8,102.27,72.59,91,72,4.97,ID,1596238174
203,tarauaca,-8.16,-70.77,77.41,58,71,1.88,BR,1596238190
204,kautokeino,69.01,23.04,48.54,82,0,1.88,NO,1596238191
205,abnub,27.27,31.15,87.8,48,0,9.17,EG,1596238191
206,rawson,-43.3,-65.1,52.02,51,36,16.82,AR,1596238191
207,nome,64.5,-165.41,55.99,100,90,5.82,US,1596238191
208,pontes e lacerda,-15.23,-59.34,79.93,36,9,4.18,BR,1596238191
209,gat,31.61,34.76,77.0,59,0,1.01,IL,1596238192
210,leh,34.17,77.58,59.79,45,45,3.8,IN,1596238192
211,fairbanks,64.84,-147.72,75.99,41,20,3.36,US,1596238192
212,kolaras,25.23,77.6,81.37,79,50,5.7,IN,1596238192
213,totskoye,52.52,52.76,65.07,91,100,6.06,RU,1596238192
214,canakkale,40.08,26.83,75.2,73,0,3.36,TR,1596238193
215,fort nelson,58.81,-122.7,86.0,37,20,10.29,CA,1596238193
216,borba,-4.39,-59.59,80.56,46,27,0.47,BR,1596238193
217,kemise,10.72,39.87,68.16,70,100,6.26,ET,1596238193
218,ati,13.22,18.34,86.18,57,48,7.54,TD,1596238193
219,chokurdakh,70.63,147.92,48.24,70,100,3.51,RU,1596238193
220,myski,53.71,87.8,53.24,74,60,2.51,RU,1596238194
221,college,64.86,-147.8,75.2,41,75,3.13,US,1596238194
222,sinnamary,5.38,-52.95,79.93,81,100,2.17,GF,1596238194
223,korla,41.76,86.15,77.0,66,0,4.0,CN,1596238194
224,cherskiy,68.75,161.3,44.44,77,100,8.3,RU,1596238194
225,honningsvag,70.98,25.97,50.38,87,68,10.36,NO,1596238195
226,tuatapere,-46.13,167.68,51.67,88,100,1.81,NZ,1596238195
227,iralaya,15.0,-83.23,86.0,79,75,9.17,HN,1596238195
228,provideniya,64.38,-173.3,51.1,63,0,4.34,RU,1596238195
229,nioro,13.35,-15.75,76.89,92,100,6.93,GM,1596238196
230,tottori,35.5,134.23,80.6,78,75,4.7,JP,1596238196
231,naze,28.37,129.48,84.2,79,20,4.7,JP,1596238196
232,poum,-20.23,164.02,71.01,77,5,28.34,NC,1596238196
233,qarqin,37.42,66.04,72.91,30,4,8.81,AF,1596238197
234,adre,13.47,22.2,76.62,71,16,3.89,TD,1596238197
235,palmas de monte alto,-14.27,-43.16,70.41,55,9,7.72,BR,1596238197
236,guerrero negro,27.98,-114.06,86.97,44,0,13.94,MX,1596238190
237,nizhniy tsasuchey,50.52,115.13,68.04,75,1,3.02,RU,1596238197
238,havre-saint-pierre,50.23,-63.6,62.6,93,90,3.36,CA,1596238198
239,half moon bay,37.46,-122.43,80.01,77,40,13.87,US,1596238047
240,humaita,-7.51,-63.02,80.42,38,38,2.44,BR,1596238198
241,merauke,-8.47,140.33,76.24,71,22,18.12,ID,1596238199
242,sambava,-14.27,50.17,69.84,83,36,13.8,MG,1596238199
243,shoranur,10.77,76.28,75.2,94,75,8.05,IN,1596238199
244,katsuura,35.13,140.3,78.01,85,0,1.99,JP,1596238199
245,zhangjiakou,40.81,114.88,71.92,76,0,3.47,CN,1596238200
246,kruisfontein,-34.0,24.73,48.54,90,0,3.51,ZA,1596238200
247,hun,29.13,15.95,77.0,43,0,4.72,LY,1596238200
248,novobirilyussy,56.95,90.67,57.87,73,99,1.16,RU,1596238201
249,nazareno,25.38,-103.42,93.2,28,75,11.41,MX,1596238201
250,port hardy,50.7,-127.42,71.6,60,40,8.05,CA,1596238201
251,makakilo city,21.35,-158.09,87.8,45,75,10.29,US,1596238202
252,morgan city,29.7,-91.21,89.01,70,40,11.41,US,1596238202
253,cidreira,-30.18,-50.21,58.03,92,20,10.0,BR,1596238202
254,kayerkan,69.35,87.76,60.8,87,40,13.42,RU,1596238203
255,poya,-21.35,165.15,70.68,71,87,13.91,NC,1596238203
256,mehamn,71.04,27.85,48.63,87,94,4.65,NO,1596238203
257,coihaique,-45.58,-72.07,33.8,100,90,2.24,CL,1596238203
258,adrar,20.5,-10.07,96.22,31,19,12.01,MR,1596238204
259,sao filipe,14.9,-24.5,75.58,78,42,8.68,CV,1596238204
260,kokopo,-4.35,152.26,82.26,79,74,16.55,PG,1596238204
261,ust-ilimsk,58.0,102.66,60.76,87,99,4.23,RU,1596238204
262,asau,46.43,26.4,59.0,96,51,2.51,RO,1596238205
263,saveh,35.02,50.36,75.25,49,50,4.7,IR,1596238205
264,puerto plata,19.79,-70.69,82.4,88,40,13.87,DO,1596238205
265,chumikan,54.72,135.31,52.36,94,100,22.55,RU,1596238205
266,beziers,43.35,3.22,75.99,94,0,4.7,FR,1596238206
267,san cristobal,7.77,-72.22,89.6,46,40,20.8,VE,1596237917
268,kattivakkam,13.22,80.32,80.6,88,75,3.36,IN,1596238206
269,bria,6.54,21.99,69.49,94,36,2.33,CF,1596238206
270,lorengau,-2.02,147.27,84.34,77,26,8.08,PG,1596238206
271,tay ninh,11.3,106.1,78.64,86,100,9.51,VN,1596238206
272,bambous virieux,-20.34,57.76,69.8,83,20,6.93,MU,1596238207
273,san borja,-14.82,-66.85,71.29,62,0,2.53,BO,1596238207
274,riviere-du-loup,47.83,-69.53,63.45,85,50,4.41,CA,1596238199
275,kieta,-6.22,155.63,80.94,77,79,2.51,PG,1596238208
276,taltal,-25.4,-70.48,59.52,63,0,3.56,CL,1596238208
277,knysna,-34.04,23.05,46.4,100,0,5.82,ZA,1596238208
278,dzilam gonzalez,21.28,-88.93,83.73,75,13,7.63,MX,1596238208
279,coquimbo,-29.95,-71.34,53.6,93,3,1.12,CL,1596238209
280,ampanihy,-24.7,44.75,60.98,81,92,8.3,MG,1596238209
281,poplar bluff,36.76,-90.39,86.0,69,90,9.17,US,1596238178
282,mangai,-4.05,19.53,74.91,34,51,1.52,CD,1596238209
283,bogale,16.28,95.4,79.52,90,95,4.07,MM,1596238209
284,berlevag,70.86,29.09,49.19,89,100,7.47,NO,1596238210
285,westport,41.14,-73.36,79.0,69,1,6.93,US,1596238145
286,kamaishi,39.27,141.88,73.4,78,75,3.36,JP,1596238210
287,kavieng,-2.57,150.8,84.67,76,42,12.03,PG,1596238210
288,belyy yar,53.6,91.39,57.2,87,100,4.47,RU,1596238210
289,pisco,-13.7,-76.22,60.8,82,90,5.82,PE,1596238097
290,bud,39.45,-86.18,77.0,57,90,4.7,US,1596238211
291,darhan,49.49,105.92,60.73,92,100,8.21,MN,1596238211
292,isangel,-19.55,169.27,78.8,78,90,11.41,VU,1596238211
293,kapit,2.02,112.93,76.51,83,100,1.45,MY,1596238212
294,manavgat,36.79,31.44,80.6,74,0,3.36,TR,1596238212
295,saint paul,44.94,-93.09,82.99,45,20,6.93,US,1596238017
296,peniche,39.36,-9.38,69.01,90,2,8.01,PT,1596238212
297,ternate,0.8,127.4,81.14,78,31,2.86,ID,1596238212
298,west chicago,41.88,-88.2,77.0,53,1,11.41,US,1596238213
299,alofi,-19.06,-169.92,78.8,57,30,12.75,NU,1596238213
300,whitehorse,60.72,-135.05,80.6,26,75,4.7,CA,1596238213
301,sabang,5.89,95.32,83.41,72,100,19.28,ID,1596238213
302,beringovskiy,63.05,179.32,51.33,71,46,6.64,RU,1596238214
303,kushima,31.46,131.23,84.2,70,75,4.7,JP,1596238214
304,vestmanna,62.16,-7.17,53.6,100,91,18.34,FO,1596238214
305,dubbo,-32.25,148.62,46.4,87,0,6.93,AU,1596238214
306,zhigalovo,54.81,105.16,62.01,82,84,3.13,RU,1596238214
307,aksu,41.12,80.26,74.91,28,21,2.57,CN,1596238215
308,yulara,-25.24,130.99,48.2,36,0,5.82,AU,1596238215
309,mao,39.89,4.27,77.0,88,0,5.82,ES,1596238215
310,phayakkhaphum phisai,15.52,103.19,77.0,94,75,4.7,TH,1596238215
311,loralai,30.37,68.6,78.93,48,1,5.88,PK,1596238215
312,juneau,58.3,-134.42,73.99,46,75,10.29,US,1596238142
313,namatanai,-3.67,152.43,82.42,79,53,10.47,PG,1596238216
314,rodrigues alves,-7.74,-72.65,75.78,62,71,1.86,BR,1596238216
315,kochubey,44.39,46.58,72.07,69,7,9.24,RU,1596238216
316,diamantino,-14.41,-56.45,78.8,29,0,3.56,BR,1596238121
317,maha sarakham,16.18,103.3,77.0,94,75,1.12,TH,1596238217
318,inuvik,68.35,-133.72,77.0,44,5,8.05,CA,1596238217
319,fortuna,40.6,-124.16,70.0,68,12,3.0,US,1596238217
320,moryakovskiy zaton,56.7,84.65,57.2,100,78,2.04,RU,1596238218
321,norman wells,65.28,-126.83,86.0,33,5,5.82,CA,1596238218
322,masuda,34.67,131.85,78.8,83,75,5.82,JP,1596238218
323,regina,50.45,-104.62,78.8,41,20,10.29,CA,1596237955
324,beloha,-25.17,45.05,59.92,79,68,6.4,MG,1596238218
325,derzhavinsk,51.1,66.32,70.21,42,21,4.9,KZ,1596238219
326,hay river,60.82,-115.8,75.2,57,20,13.87,CA,1596238219
327,berwick,41.05,-76.23,82.0,52,32,4.12,US,1596238219
328,grindavik,63.84,-22.43,51.8,93,90,14.99,IS,1596238219
329,viedma,-40.81,-63.0,46.99,68,4,8.46,AR,1596238220
330,aykhal,66.0,111.5,59.0,58,0,4.47,RU,1596238220
331,egvekinot,66.32,-179.17,45.45,88,97,2.13,RU,1596238220
332,elmadag,39.92,33.23,77.0,53,0,10.29,TR,1596238220
333,shihezi,44.3,86.03,72.72,37,39,4.07,CN,1596238221
334,dudinka,69.41,86.18,60.8,87,40,13.42,RU,1596238221
335,plouzane,48.38,-4.62,62.6,93,90,5.82,FR,1596238221
336,clyde river,70.47,-68.59,42.8,100,90,10.29,CA,1596238221
337,kijang,35.24,129.21,80.6,83,75,1.12,KR,1596238221
338,flinders,-34.58,150.86,51.01,91,28,4.0,AU,1596237985
339,portland,45.52,-122.68,90.0,31,20,4.7,US,1596238215
340,nha trang,12.25,109.18,84.2,66,40,9.17,VN,1596238222
341,paita,-5.09,-81.11,62.28,86,5,13.4,PE,1596238222
342,kasongo-lunda,-6.47,16.82,70.79,30,3,2.98,CD,1596238222
343,wenchi,7.74,-2.1,71.56,95,100,7.56,GH,1596238222
344,watsa,3.04,29.54,62.38,100,34,2.28,CD,1596238223
345,indramayu,-6.33,108.32,75.0,75,94,6.82,ID,1596238223
346,nara,34.69,135.8,82.4,69,20,3.36,JP,1596238038
347,padang,-0.95,100.35,76.17,77,52,3.27,ID,1596237958
348,emure,7.44,5.46,69.08,99,81,4.79,NG,1596238223
349,ukiah,39.15,-123.21,91.4,19,1,6.93,US,1596238037
350,rovaniemi,66.5,25.72,53.6,76,0,2.24,FI,1596238224
351,cam ranh,11.92,109.16,84.2,66,40,9.17,VN,1596238224
352,ambilobe,-13.2,49.05,67.66,87,41,3.56,MG,1596238224
353,mackay,-21.15,149.2,68.0,72,90,16.11,AU,1596238224
354,lavrentiya,65.58,-171.0,46.96,75,49,7.76,RU,1596238225
355,kulu,39.1,33.08,69.51,45,0,5.7,TR,1596238225
356,noumea,-22.28,166.46,68.0,88,90,3.36,NC,1596238096
357,garowe,8.41,48.48,76.91,68,25,26.87,SO,1596238225
358,buba,11.58,-15.0,75.52,93,100,3.58,GW,1596238226
359,copiapo,-27.37,-70.33,55.4,82,0,4.7,CL,1596237976
360,miri,4.41,114.01,75.2,100,20,4.68,MY,1596238226
361,conceicao do araguaia,-8.26,-49.26,77.31,30,29,4.7,BR,1596238226
362,quatre cocos,-20.21,57.76,69.8,83,20,6.93,MU,1596238226
363,aklavik,68.22,-135.01,71.6,60,5,6.93,CA,1596238227
364,mesetas,3.38,-74.04,71.46,82,31,2.51,CO,1596238227
365,esperance,-33.87,121.9,50.0,93,40,4.7,AU,1596238227
366,saint-pierre,-21.34,55.48,68.0,88,20,6.93,RE,1596238227
367,zeya,53.75,127.27,72.16,76,96,5.66,RU,1596238227
368,lithakia,37.72,20.83,71.6,88,0,3.36,GR,1596238228
369,piombino,42.93,10.52,81.0,98,3,3.0,IT,1596238228
370,colimes,-1.55,-80.02,77.0,73,75,10.29,EC,1596238228
371,kaa-khem,51.68,94.73,52.52,88,100,6.38,RU,1596238228
372,meulaboh,4.14,96.13,74.97,82,81,3.06,ID,1596238228
373,chicama,-7.84,-79.15,62.56,78,8,4.63,PE,1596238229
374,broken hill,-31.95,141.43,51.8,57,0,8.48,AU,1596238229
375,allapalli,19.42,80.07,78.8,88,66,1.95,IN,1596238229
376,kharp,66.8,65.81,54.16,68,95,5.97,RU,1596238229
377,ushtobe,45.25,77.98,70.11,31,67,12.3,KZ,1596238229
378,eyl,7.98,49.82,79.38,69,51,27.02,SO,1596238230
379,kutum,14.2,24.67,74.44,71,58,18.66,SD,1596238230
380,hays,30.05,-98.03,84.99,74,40,13.87,US,1596238230
381,manta,-0.95,-80.73,73.4,88,90,13.87,EC,1596238230
382,soyo,-6.13,12.37,71.29,84,1,5.86,AO,1596238230
383,karpathos,35.51,27.21,77.0,78,0,24.16,GR,1596238231
384,vanderhoof,54.02,-124.02,75.54,52,45,23.42,CA,1596238231
385,ixtapa,20.7,-105.2,86.0,74,90,9.17,MX,1596238231
386,rio grande,-32.03,-52.1,57.0,87,100,7.47,BR,1596238068
387,ust-barguzin,53.45,108.98,57.94,96,100,2.71,RU,1596238231
388,baryatino,54.31,34.52,50.61,97,53,4.74,RU,1596238232
389,inta,66.03,60.17,54.7,77,84,13.18,RU,1596238232
390,vostok,46.49,135.88,71.94,72,100,4.36,RU,1596238232
391,abu samrah,35.3,37.18,75.2,59,0,10.96,SY,1596238232
392,padre bernardo,-15.35,-48.5,65.7,52,0,4.81,BR,1596238233
393,chapais,49.78,-74.85,77.0,50,1,5.82,CA,1596238233
394,lata,40.16,-8.33,66.0,97,21,3.0,PT,1596238233
395,cockburn town,21.46,-71.14,82.78,83,100,27.34,TC,1596238234
396,chernyshkovskiy,48.42,42.23,69.37,77,97,8.03,RU,1596238234
397,balabac,7.99,117.06,82.89,74,100,7.0,PH,1596238234
398,cayenne,4.93,-52.33,80.6,88,99,3.36,GF,1596238234
399,batagay,67.63,134.63,65.03,47,0,3.76,RU,1596238235
400,bonthe,7.53,-12.51,76.57,89,99,6.55,SL,1596238235
401,mount gambier,-37.83,140.77,50.0,71,4,13.87,AU,1596238235
402,bathsheba,13.22,-59.52,82.4,69,20,10.29,BB,1596238235
403,paamiut,61.99,-49.67,44.94,93,100,7.74,GL,1596238236
404,dingle,11.0,122.67,79.97,84,100,4.21,PH,1596238236
405,las cruces,32.31,-106.78,97.0,20,1,5.82,US,1596238236
406,brokopondo,4.75,-55.17,79.74,72,100,2.19,SR,1596238236
407,kankakee,41.15,-87.87,75.2,60,1,8.05,US,1596238236
408,orotukan,62.27,151.7,56.79,52,80,9.57,RU,1596238237
409,healdsburg,38.61,-122.87,88.0,39,1,10.29,US,1596238237
410,caravelas,-17.71,-39.25,70.23,86,59,10.58,BR,1596238237
411,mahibadhoo,3.78,72.97,82.26,79,99,14.25,MV,1596238238
412,udachnyy,66.42,112.4,59.0,58,0,4.47,RU,1596238238
413,belmonte,-15.86,-38.88,75.2,69,40,6.93,BR,1596238238
414,pilar,-9.6,-35.96,73.4,94,90,8.05,BR,1596238238
415,moron,-34.65,-58.62,52.0,76,28,3.36,AR,1596238239
416,iqaluit,63.75,-68.51,53.6,93,90,2.24,CA,1596238239
417,salta,-24.79,-65.41,59.0,30,0,6.93,AR,1596238239
418,oranjemund,-28.55,16.43,71.73,22,0,11.68,NA,1596238240
419,ilo,-17.64,-71.34,58.71,80,26,1.5,PE,1596238240
420,brae,60.4,-1.35,60.8,77,87,24.16,GB,1596238240
421,naranjos,21.35,-97.68,84.36,71,59,7.78,MX,1596238241
422,buala,-8.14,159.59,85.08,66,66,6.17,SB,1596238241
423,vanimo,-2.67,141.3,82.69,80,26,2.21,PG,1596238241
424,tres lagoas,-20.75,-51.68,75.16,40,19,7.2,BR,1596238046
425,namibe,-15.2,12.15,66.15,79,10,2.91,AO,1596238241
426,nuuk,64.18,-51.72,48.2,87,100,29.97,GL,1596238050
427,grevena,40.08,21.43,75.99,82,9,3.8,GR,1596238242
428,arequipa,-16.4,-71.53,60.8,12,0,5.82,PE,1596237979
429,victoria,22.29,114.16,82.99,83,100,20.0,HK,1596238242
430,kulhudhuffushi,6.62,73.07,82.87,77,92,17.09,MV,1596238243
431,batticaloa,7.71,81.69,80.69,75,97,4.92,LK,1596238243
432,katherine,-14.47,132.27,66.2,77,75,10.29,AU,1596238243
433,pochutla,15.74,-96.47,91.4,55,20,4.65,MX,1596238243
434,zhangye,38.93,100.45,72.68,26,0,7.27,CN,1596238243
435,goundam,16.41,-3.67,97.05,26,9,6.6,ML,1596238244
436,kidal,18.44,1.41,96.49,14,0,7.07,ML,1596238244
437,severnoye,56.35,78.36,50.61,97,13,2.84,RU,1596238244
438,bafq,31.61,55.41,78.96,26,67,10.47,IR,1596238244
439,redditch,52.31,-1.95,66.0,80,100,1.99,GB,1596238244
440,matagami,49.75,-77.63,75.2,69,90,3.27,CA,1596238245
441,yongan,39.7,113.69,75.72,59,42,2.3,CN,1596238245
442,nantucket,41.28,-70.1,71.6,88,90,7.76,US,1596237982
443,nabire,-3.37,135.48,81.57,78,65,4.56,ID,1596238245
444,bridlington,54.08,-0.19,68.0,88,77,6.93,GB,1596238133
445,gazojak,41.19,61.4,71.47,37,0,6.82,TM,1596238246
446,mayumba,-3.43,10.66,71.38,85,18,5.12,GA,1596238246
447,anadyr,64.75,177.48,62.6,59,20,6.71,RU,1596238246
448,leiyang,26.4,112.86,84.85,68,11,8.79,CN,1596238247
449,gewane,10.17,40.65,80.06,53,100,10.36,ET,1596238247
450,shelburne,44.08,-80.2,80.01,60,1,9.17,CA,1596238238
451,pandan,14.05,124.17,77.86,88,100,5.5,PH,1596238247
452,erenhot,43.65,111.98,78.31,18,37,13.06,CN,1596238247
453,baruun-urt,46.68,113.28,72.14,57,72,18.14,MN,1596238248
454,opuwo,-18.06,13.84,55.72,39,0,7.58,NA,1596238248
455,lucea,18.45,-78.17,87.01,74,40,5.82,JM,1596238248
456,puerto leguizamo,-0.19,-74.78,73.26,95,9,1.54,CO,1596238248
457,jimma,7.67,36.83,57.45,90,100,0.45,ET,1596238249
458,juba,4.85,31.58,69.67,94,54,1.45,SS,1596238249
459,sedalia,38.7,-93.23,75.2,60,20,13.87,US,1596238249
460,maceio,-9.67,-35.74,73.4,94,90,8.05,BR,1596238249
461,finschhafen,-6.6,147.87,77.59,80,98,13.87,PG,1596238249
462,henties bay,-22.12,14.28,73.99,21,0,9.24,NA,1596238250
463,taoudenni,22.68,-3.98,99.5,11,0,10.54,ML,1596238250
464,chilca,-12.52,-76.74,60.8,77,90,6.93,PE,1596238250
465,nizhniy kuranakh,58.84,125.49,62.2,76,68,8.08,RU,1596238250
466,tahta,26.77,31.5,91.4,24,20,14.99,EG,1596238251
467,broome,42.25,-75.83,80.01,44,1,10.29,US,1596238251
468,shouguang,36.88,118.74,84.0,76,24,1.01,CN,1596238251
469,cuiluan,47.72,128.65,77.77,69,51,9.64,CN,1596238251
470,payo,-3.75,103.64,72.05,86,98,1.39,ID,1596238252
471,rantauprapat,2.1,99.83,75.04,83,93,1.59,ID,1596238252
472,sume,-7.67,-36.88,69.78,73,54,11.86,BR,1596238140
473,nouakchott,18.09,-15.98,84.2,79,72,6.93,MR,1596238139
474,vagamo,61.88,9.1,57.11,71,98,3.83,NO,1596238253
475,trelew,-43.25,-65.31,52.56,46,34,15.73,AR,1596238107
476,coari,-4.08,-63.14,77.65,58,12,1.36,BR,1596238253
477,masunga,-20.62,27.45,46.18,57,0,8.93,BW,1596238253
478,listvyanskiy,54.44,83.5,54.79,88,73,5.39,RU,1596238253
479,colinas,-6.03,-44.25,76.8,42,56,4.18,BR,1596238220
480,bembereke,10.23,2.66,70.45,95,91,5.06,BJ,1596238254
481,bay roberts,47.6,-53.26,61.0,1,100,7.43,CA,1596238254
482,waipawa,-41.41,175.52,53.6,71,100,6.93,NZ,1596238254
483,kabale,-1.25,29.99,60.53,59,17,2.13,UG,1596238254
484,tiznit,29.58,-9.5,78.03,50,44,1.63,MA,1596238255
485,yugorsk,61.31,63.33,54.66,99,66,5.93,RU,1596238255
486,ustye,59.63,39.74,50.92,94,55,2.82,RU,1596238255
487,muncar,-8.43,114.33,75.04,79,88,2.59,ID,1596238255
488,brandon,27.94,-82.29,93.99,66,1,1.19,US,1596238177
489,te anau,-45.42,167.72,50.52,84,99,0.63,NZ,1596238256
490,boma,7.08,-2.17,70.7,96,98,3.98,GH,1596238256
491,goderich,43.75,-81.72,77.0,60,25,4.0,CA,1596238147
492,diego de almagro,-26.37,-70.05,52.92,54,0,1.61,CL,1596238256
493,sakakah,29.97,40.21,91.4,16,0,13.87,SA,1596238257
494,kon tum,14.35,108.0,72.01,94,100,5.26,VN,1596238257
495,chara,56.91,118.26,61.45,81,100,3.44,RU,1596238257
496,vallenar,-28.57,-70.76,68.38,23,0,1.45,CL,1596238257
497,borogontsy,62.67,131.17,70.74,44,0,5.06,RU,1596238258
498,vila franca do campo,37.72,-25.43,69.8,68,40,8.05,PT,1596238233
499,yangjiang,21.85,111.97,81.75,86,100,17.94,CN,1596238258
500,ponta delgada,37.73,-25.67,69.8,68,40,8.05,PT,1596238258
501,acajutla,13.59,-89.83,91.4,46,20,2.24,SV,1596238258
502,warrnambool,-38.38,142.48,52.0,75,38,5.01,AU,1596238259
503,mezen,65.85,44.24,50.76,86,32,7.67,RU,1596238259
504,fare,-16.7,-151.02,79.07,81,10,14.41,PF,1596238259
505,kaspiyskiy,45.39,47.37,76.48,66,0,16.2,RU,1596238259
506,gorom-gorom,14.44,-0.24,81.88,65,41,15.82,BF,1596238259
507,russell,32.35,-85.2,93.2,56,1,9.17,US,1596238260
508,sur,22.57,59.53,85.5,69,82,6.67,OM,1596238260
509,ossora,59.24,163.07,57.24,83,93,18.99,RU,1596238260
510,evensk,61.95,159.23,63.41,48,81,19.01,RU,1596238261
511,verkhnyaya sysert,56.44,60.75,60.8,93,93,6.71,RU,1596238261
512,marovoay,-16.1,46.63,65.3,78,0,4.79,MG,1596238261
513,newport,51.59,-3.0,64.0,87,100,1.01,GB,1596238169
514,seabra,-12.42,-41.77,66.2,100,90,5.82,BR,1596238262
515,abonnema,4.71,6.79,73.8,89,83,3.62,NG,1596238262
516,icod de los vinos,28.37,-16.71,73.0,90,43,1.01,ES,1596238262
517,necochea,-38.55,-58.74,47.21,73,0,3.85,AR,1596238262
518,smithers,54.78,-127.17,86.0,37,75,8.05,CA,1596238262
519,sechura,-5.56,-80.82,66.76,70,8,13.53,PE,1596238250
520,ruteng,-8.61,120.47,64.6,74,73,1.81,ID,1596238263
521,zheleznodorozhnyy,55.75,38.0,59.0,87,23,4.47,RU,1596238263
522,maniitsoq,65.42,-52.9,45.88,96,100,21.23,GL,1596238263
523,alice springs,-23.7,133.88,44.6,33,0,7.4,AU,1596238264
524,coxim,-18.51,-54.76,82.92,30,82,8.66,BR,1596238264
525,tazovskiy,67.47,78.7,51.39,98,98,11.65,RU,1596238264
526,springfield,37.22,-93.3,70.0,88,90,19.46,US,1596238179
527,yerbogachen,61.28,108.01,62.78,71,100,8.93,RU,1596238264
528,santa maria,-29.68,-53.81,60.8,77,40,2.24,BR,1596238265
529,tabory,58.52,64.55,57.6,97,78,4.29,RU,1596238265
530,linhares,-19.39,-40.07,67.05,89,69,7.34,BR,1596238265
531,tilichiki,60.47,166.1,59.09,68,49,3.85,RU,1596238266
532,laguna,38.42,-121.42,96.01,23,1,6.93,US,1596238266
533,umm bab,25.21,50.81,96.01,75,1,4.7,QA,1596238266
534,parainen,60.31,22.3,61.0,87,28,4.7,FI,1596238266
535,estremoz,38.84,-7.59,64.98,52,0,8.5,PT,1596238266
536,talnakh,69.49,88.4,60.8,87,40,13.42,RU,1596238267
537,fernley,39.61,-119.25,98.01,7,0,5.99,US,1596238267
538,vestmannaeyjar,63.44,-20.27,53.76,88,100,12.33,IS,1596238267
539,margate,51.38,1.39,69.01,74,47,4.0,GB,1596238245
540,vila velha,-20.33,-40.29,71.6,73,90,11.41,BR,1596238028
541,filingue,14.35,3.32,83.75,62,0,14.83,NE,1596238268
542,souillac,-20.52,57.52,69.8,83,20,6.93,MU,1596238248
543,oistins,13.07,-59.53,82.4,69,20,10.29,BB,1596238268
544,calabozo,8.92,-67.43,77.13,93,81,3.87,VE,1596238108
545,xiuyan,40.29,123.27,74.64,93,100,6.04,CN,1596238268
546,vredendal,-31.67,18.5,51.89,68,0,0.72,ZA,1596238268
547,alyangula,-13.85,136.42,73.4,60,22,5.82,AU,1596238269
548,williams lake,52.14,-122.14,78.8,54,75,3.36,CA,1596238269
549,pozo colorado,-23.49,-58.8,70.54,58,10,5.68,PY,1596238269
550,kirakira,-10.45,161.92,83.25,72,98,4.63,SB,1596238269
551,vuktyl,63.86,57.31,50.4,96,92,5.66,RU,1596238269
552,los algarrobos,8.5,-82.43,86.0,74,40,6.93,PA,1596238270
553,great yarmouth,52.61,1.73,73.0,82,58,1.01,GB,1596238270
554,kloulklubed,7.04,134.26,78.8,94,90,5.82,PW,1596238270
555,tabou,4.42,-7.35,75.15,86,92,11.92,CI,1596238271
556,sao gabriel da cachoeira,-0.13,-67.09,77.09,64,10,0.78,BR,1596238271
